,City,Cloudiness,Date,Temp,Wind Speed,Humidity,Country,Lat,Long
0,port lincoln,100,1970-01-01 00:00:01.596660445,49.86,19.3,68,AU,-34.73,135.87
1,hermanus,42,1970-01-01 00:00:01.596659919,43.0,1.01,94,ZA,-34.42,19.23
2,verkhniy avzyan,48,1970-01-01 00:00:01.596660446,62.78,5.37,83,RU,53.53,57.54
3,chokurdakh,13,1970-01-01 00:00:01.596659637,59.43,6.8,48,RU,70.63,147.92
4,olinda,40,1970-01-01 00:00:01.596659972,78.8,18.34,65,BR,-8.01,-34.86
5,provideniya,75,1970-01-01 00:00:01.596659953,53.6,6.71,66,RU,64.38,-173.3
6,basco,100,1970-01-01 00:00:01.596660446,84.49,13.62,81,PH,20.45,121.97
7,saint-philippe,45,1970-01-01 00:00:01.596659922,62.6,6.93,67,RE,-21.36,55.77
8,barrow,90,1970-01-01 00:00:01.596659938,44.6,10.29,81,US,71.29,-156.79
9,banda aceh,100,1970-01-01 00:00:01.596659980,81.09,4.16,71,ID,5.56,95.32
10,vaini,20,1970-01-01 00:00:01.596659920,68.0,3.36,82,TO,-21.2,-175.2
11,rikitea,57,1970-01-01 00:00:01.596659917,70.34,11.88,81,PF,-23.12,-134.97
12,hasaki,20,1970-01-01 00:00:01.596659928,75.0,4.7,100,JP,35.73,140.83
13,hilo,90,1970-01-01 00:00:01.596659659,78.01,4.7,83,US,19.73,-155.09
14,dargaville,100,1970-01-01 00:00:01.596660447,55.71,6.15,92,NZ,-35.93,173.88
15,auki,98,1970-01-01 00:00:01.596660447,80.08,4.34,83,SB,-8.77,160.7
16,sioux lookout,40,1970-01-01 00:00:01.596660447,78.8,10.29,39,CA,50.1,-91.92
17,lasa,5,1970-01-01 00:00:01.596659843,57.2,2.24,82,IT,46.62,10.7
18,narsaq,20,1970-01-01 00:00:01.596659927,55.4,9.17,62,GL,60.92,-46.05
19,san rafael,0,1970-01-01 00:00:01.596660447,64.27,8.72,34,AR,-34.62,-68.33
20,upata,87,1970-01-01 00:00:01.596660448,84.99,5.01,69,VE,8.01,-62.4
21,chumikan,0,1970-01-01 00:00:01.596660448,52.7,6.8,80,RU,54.72,135.31
22,port blair,100,1970-01-01 00:00:01.596659982,81.99,14.9,83,IN,11.67,92.75
23,mataura,100,1970-01-01 00:00:01.596659922,41.0,3.49,97,NZ,-46.19,168.86
24,stornoway,76,1970-01-01 00:00:01.596659969,57.0,4.7,100,GB,58.21,-6.39
25,kulhudhuffushi,71,1970-01-01 00:00:01.596659960,82.44,22.77,81,MV,6.62,73.07
26,moirang,100,1970-01-01 00:00:01.596660448,72.73,2.26,91,IN,24.5,93.77
27,puerto el triunfo,20,1970-01-01 00:00:01.596660449,93.2,2.24,59,SV,13.28,-88.55
28,qaanaaq,20,1970-01-01 00:00:01.596659778,38.23,0.49,70,GL,77.48,-69.36
29,khatanga,67,1970-01-01 00:00:01.596659922,55.13,8.79,86,RU,71.97,102.5
30,busselton,1,1970-01-01 00:00:01.596659918,46.99,10.36,82,AU,-33.65,115.33
31,ponta do sol,75,1970-01-01 00:00:01.596659925,73.4,6.93,73,PT,32.67,-17.1
32,sao filipe,17,1970-01-01 00:00:01.596659949,77.81,6.29,82,CV,14.9,-24.5
33,atuona,4,1970-01-01 00:00:01.596659933,78.58,16.96,73,PF,-9.8,-139.03
34,vila velha,40,1970-01-01 00:00:01.596659944,73.99,4.7,78,BR,-20.33,-40.29
35,mar del plata,90,1970-01-01 00:00:01.596659857,66.2,10.29,82,AR,-38.0,-57.56
36,duyun,69,1970-01-01 00:00:01.596660450,70.9,2.89,92,CN,26.27,107.52
37,murray bridge,100,1970-01-01 00:00:01.596660450,37.0,2.35,95,AU,-35.12,139.27
38,mahibadhoo,100,1970-01-01 00:00:01.596660450,82.31,17.49,79,MV,3.78,72.97
39,roald,75,1970-01-01 00:00:01.596660450,61.0,8.05,87,NO,62.58,6.13
40,punta arenas,100,1970-01-01 00:00:01.596659627,39.2,12.75,76,CL,-53.15,-70.92
41,sabang,100,1970-01-01 00:00:01.596659991,83.35,4.94,74,ID,5.89,95.32
42,saskylakh,94,1970-01-01 00:00:01.596659936,61.92,14.25,86,RU,71.92,114.08
43,castro,0,1970-01-01 00:00:01.596659656,59.09,2.98,71,BR,-24.79,-50.01
44,olafsvik,100,1970-01-01 00:00:01.596659966,50.16,12.03,90,IS,64.89,-23.71
45,minsk,93,1970-01-01 00:00:01.596660374,62.6,4.47,93,BY,53.9,27.57
46,panguna,96,1970-01-01 00:00:01.596660451,71.06,2.3,96,PG,-6.32,155.48
47,wanganui,98,1970-01-01 00:00:01.596660451,45.0,1.01,90,NZ,-39.93,175.05
48,atar,0,1970-01-01 00:00:01.596660451,94.84,9.37,32,MR,20.52,-13.05
49,martapura,90,1970-01-01 00:00:01.596660451,71.6,4.7,100,ID,-3.42,114.85
50,ahipara,100,1970-01-01 00:00:01.596659774,58.12,9.06,90,NZ,-35.17,173.17
51,batagay,77,1970-01-01 00:00:01.596660452,64.74,3.53,37,RU,67.63,134.63
52,cape town,20,1970-01-01 00:00:01.596659919,52.0,4.7,75,ZA,-33.93,18.42
53,romitan,0,1970-01-01 00:00:01.596660452,75.2,11.41,31,UZ,39.93,64.38
54,fugen,0,1970-01-01 00:00:01.596660452,59.0,1.12,82,AT,47.35,11.85
55,faya,20,1970-01-01 00:00:01.596659819,68.0,8.05,88,SA,18.39,42.45
56,yakeshi,89,1970-01-01 00:00:01.596660452,58.21,2.98,95,CN,49.28,120.73
57,saint-augustin,80,1970-01-01 00:00:01.596660184,64.89,12.84,52,CA,51.23,-58.65
58,longyearbyen,75,1970-01-01 00:00:01.596659945,53.6,5.82,71,SJ,78.22,15.64
59,tiznit,0,1970-01-01 00:00:01.596660453,67.28,3.36,79,MA,29.58,-9.5
60,monrovia,20,1970-01-01 00:00:01.596660453,77.0,7.18,78,LR,6.3,-10.8
61,galveston,20,1970-01-01 00:00:01.596659796,95.0,10.29,66,US,29.37,-94.97
62,asha,5,1970-01-01 00:00:01.596660453,65.71,5.35,94,RU,55.0,57.27
63,arcachon,0,1970-01-01 00:00:01.596660453,77.0,8.05,49,FR,44.59,-1.05
64,caravelas,20,1970-01-01 00:00:01.596660453,70.68,9.71,74,BR,-17.71,-39.25
65,albany,1,1970-01-01 00:00:01.596659925,79.0,9.84,38,US,42.6,-73.97
66,ushuaia,75,1970-01-01 00:00:01.596659918,41.0,31.09,65,AR,-54.8,-68.3
67,kupang,59,1970-01-01 00:00:01.596660454,72.57,5.55,78,ID,-10.17,123.58
68,grao mogol,9,1970-01-01 00:00:01.596660454,64.11,7.09,58,BR,-16.56,-42.89
69,manta,20,1970-01-01 00:00:01.596660454,84.2,11.41,62,EC,-0.95,-80.73
70,constitucion,54,1970-01-01 00:00:01.596659935,54.25,13.94,65,CL,-35.33,-72.42
71,tukrah,0,1970-01-01 00:00:01.596660454,81.36,2.15,39,LY,32.53,20.58
72,upernavik,100,1970-01-01 00:00:01.596659732,41.14,2.64,67,GL,72.79,-56.15
73,puerto ayora,20,1970-01-01 00:00:01.596659934,77.0,21.92,61,EC,-0.74,-90.35
74,kodiak,48,1970-01-01 00:00:01.596659956,63.7,8.21,56,US,57.79,-152.41
75,tocopilla,38,1970-01-01 00:00:01.596659997,64.2,5.68,55,CL,-22.09,-70.2
76,bredasdorp,51,1970-01-01 00:00:01.596659930,44.6,5.82,87,ZA,-34.53,20.04
77,kapaa,75,1970-01-01 00:00:01.596659923,82.4,14.99,69,US,22.08,-159.32
78,sitka,75,1970-01-01 00:00:01.596659979,57.2,6.93,82,US,57.05,-135.33
79,vakhrushev,100,1970-01-01 00:00:01.596660455,51.98,11.07,90,RU,48.98,142.97
80,brownsville,20,1970-01-01 00:00:01.596660455,95.0,14.99,53,US,25.9,-97.5
81,lorengau,100,1970-01-01 00:00:01.596659952,79.75,15.37,87,PG,-2.02,147.27
82,sept-iles,90,1970-01-01 00:00:01.596660277,64.0,12.75,100,CA,50.2,-66.38
83,kavieng,68,1970-01-01 00:00:01.596659941,82.99,17.0,79,PG,-2.57,150.8
84,lagoa,70,1970-01-01 00:00:01.596659947,70.11,12.06,73,PT,39.05,-27.98
85,lata,0,1970-01-01 00:00:01.596659696,78.01,5.01,41,PT,40.16,-8.33
86,kruisfontein,48,1970-01-01 00:00:01.596659772,51.01,7.25,94,ZA,-34.0,24.73
87,najran,40,1970-01-01 00:00:01.596660456,86.0,16.11,33,SA,17.49,44.13
88,laguna,1,1970-01-01 00:00:01.596659963,80.01,10.29,53,US,38.42,-121.42
89,bluff,100,1970-01-01 00:00:01.596659795,41.0,7.96,97,NZ,-46.6,168.33
90,da lat,100,1970-01-01 00:00:01.596660456,60.96,2.46,100,VN,11.95,108.44
91,cherskiy,100,1970-01-01 00:00:01.596659965,43.65,5.64,89,RU,68.75,161.3
92,bengkulu,98,1970-01-01 00:00:01.596659943,76.1,3.0,81,ID,-3.8,102.27
93,mareeba,53,1970-01-01 00:00:01.596660457,63.0,3.24,95,AU,-17.0,145.43
94,sur,0,1970-01-01 00:00:01.596660457,89.46,6.38,55,OM,22.57,59.53
95,talnakh,39,1970-01-01 00:00:01.596659961,55.4,2.24,87,RU,69.49,88.4
96,vestmannaeyjar,100,1970-01-01 00:00:01.596659936,51.64,13.94,86,IS,63.44,-20.27
97,aklavik,90,1970-01-01 00:00:01.596659967,51.8,4.7,87,CA,68.22,-135.01
98,severo-kurilsk,100,1970-01-01 00:00:01.596659921,51.76,13.18,90,RU,50.68,156.12
99,gushikawa,1,1970-01-01 00:00:01.596659962,82.4,9.4,88,JP,26.35,127.87
100,sao joao da barra,20,1970-01-01 00:00:01.596659997,73.4,9.17,64,BR,-21.64,-41.05
101,oktyabrskoye,3,1970-01-01 00:00:01.596660458,60.8,2.24,82,RU,43.06,44.74
102,new norfolk,55,1970-01-01 00:00:01.596659917,44.01,1.99,76,AU,-42.78,147.06
103,victoria,100,1970-01-01 00:00:01.596659806,80.01,8.99,88,HK,22.29,114.16
104,walvis bay,0,1970-01-01 00:00:01.596660458,55.0,9.17,71,NA,-22.96,14.51
105,valdivia,75,1970-01-01 00:00:01.596659964,48.2,5.82,87,CL,-39.81,-73.25
106,auchel,15,1970-01-01 00:00:01.596660458,70.0,2.39,72,FR,50.5,2.47
107,hovd,0,1970-01-01 00:00:01.596659919,60.33,0.51,63,MN,48.01,91.64
108,dikson,26,1970-01-01 00:00:01.596659918,46.24,17.36,91,RU,73.51,80.55
109,east london,100,1970-01-01 00:00:01.596659922,59.45,4.83,77,ZA,-33.02,27.91
110,nome,1,1970-01-01 00:00:01.596659930,55.4,8.05,66,US,64.5,-165.41
111,guerrero negro,6,1970-01-01 00:00:01.596659773,79.47,13.35,52,MX,27.98,-114.06
112,half moon bay,90,1970-01-01 00:00:01.596660172,64.99,11.41,77,US,37.46,-122.43
113,yellowknife,75,1970-01-01 00:00:01.596659701,68.0,14.99,64,CA,62.46,-114.35
114,guanica,35,1970-01-01 00:00:01.596660459,88.0,5.99,59,PR,17.97,-66.91
115,kutum,100,1970-01-01 00:00:01.596659939,69.69,4.52,86,SD,14.2,24.67
116,saraland,77,1970-01-01 00:00:01.596660460,93.99,5.01,50,US,30.82,-88.07
117,neon karlovasion,0,1970-01-01 00:00:01.596660460,84.2,6.2,48,GR,37.79,26.7
118,iqaluit,75,1970-01-01 00:00:01.596659960,64.4,24.16,63,CA,63.75,-68.51
119,nikolskoye,100,1970-01-01 00:00:01.596659926,59.0,2.24,77,RU,59.7,30.79
120,hithadhoo,100,1970-01-01 00:00:01.596659941,82.35,11.52,73,MV,-0.6,73.08
121,kahului,40,1970-01-01 00:00:01.596659795,87.8,27.51,48,US,20.89,-156.47
122,baherden,41,1970-01-01 00:00:01.596660460,78.67,3.13,35,TM,38.44,57.43
123,hobyo,36,1970-01-01 00:00:01.596660460,77.09,26.06,77,SO,5.35,48.53
124,cabo san lucas,5,1970-01-01 00:00:01.596659760,91.4,10.29,49,MX,22.89,-109.91
125,jamestown,75,1970-01-01 00:00:01.596659860,70.0,13.87,64,US,42.1,-79.24
126,churapcha,98,1970-01-01 00:00:01.596660461,60.48,2.51,42,RU,62.0,132.43
127,merauke,88,1970-01-01 00:00:01.596660461,75.76,11.61,87,ID,-8.47,140.33
128,airai,14,1970-01-01 00:00:01.596659949,52.95,0.43,100,TL,-8.93,125.41
129,thompson,75,1970-01-01 00:00:01.596659938,84.2,10.29,32,CA,55.74,-97.86
130,butaritari,44,1970-01-01 00:00:01.596659920,83.59,23.38,74,KI,3.07,172.79
131,ribeira grande,40,1970-01-01 00:00:01.596659943,73.4,10.29,60,PT,38.52,-28.7
132,naze,20,1970-01-01 00:00:01.596659813,78.8,2.24,94,JP,28.37,129.48
133,marsh harbour,34,1970-01-01 00:00:01.596660462,84.06,6.35,75,BS,26.54,-77.06
134,solnechnyy,100,1970-01-01 00:00:01.596660462,48.31,7.99,92,RU,50.72,136.63
135,carnarvon,0,1970-01-01 00:00:01.596659736,53.6,8.05,76,AU,-24.87,113.63
136,egvekinot,92,1970-01-01 00:00:01.596660462,40.15,5.84,79,RU,66.32,-179.17
137,hobart,75,1970-01-01 00:00:01.596659628,46.4,19.46,70,AU,-42.88,147.33
138,krasnoselkup,0,1970-01-01 00:00:01.596659805,54.23,8.48,79,RU,65.7,82.47
139,sibolga,100,1970-01-01 00:00:01.596660462,78.06,3.69,72,ID,1.74,98.78
140,avarua,5,1970-01-01 00:00:01.596659917,77.0,11.41,94,CK,-21.21,-159.78
141,wanning,100,1970-01-01 00:00:01.596660463,82.02,9.15,87,CN,18.8,110.4
142,torbay,20,1970-01-01 00:00:01.596659714,68.0,10.29,68,CA,47.67,-52.73
143,zyryanskoye,58,1970-01-01 00:00:01.596660463,59.38,4.68,71,RU,56.83,86.63
144,hamilton,40,1970-01-01 00:00:01.596659907,79.0,5.82,44,US,39.18,-84.53
145,chambar,27,1970-01-01 00:00:01.596660463,89.37,15.66,62,PK,25.29,68.81
146,hambantota,96,1970-01-01 00:00:01.596659917,79.21,13.78,83,LK,6.12,81.12
147,woodward,1,1970-01-01 00:00:01.596660463,86.0,5.82,48,US,36.43,-99.39
148,la grande,1,1970-01-01 00:00:01.596660464,87.01,4.7,23,US,45.32,-118.09
149,mamallapuram,40,1970-01-01 00:00:01.596660464,84.2,6.93,62,IN,12.63,80.17
150,makakilo city,40,1970-01-01 00:00:01.596660357,87.8,10.29,48,US,21.35,-158.09
151,vardo,75,1970-01-01 00:00:01.596659966,48.2,19.46,100,NO,70.37,31.11
152,salinopolis,0,1970-01-01 00:00:01.596660464,80.8,13.04,80,BR,-0.61,-47.36
153,tuatapere,100,1970-01-01 00:00:01.596659975,41.0,5.7,97,NZ,-46.13,167.68
154,port elizabeth,90,1970-01-01 00:00:01.596659926,53.6,10.29,100,ZA,-33.92,25.57
155,arraial do cabo,0,1970-01-01 00:00:01.596659942,71.6,16.11,73,BR,-22.97,-42.03
156,beaumont,1,1970-01-01 00:00:01.596660465,95.0,6.93,53,US,30.09,-94.1
157,jalu,0,1970-01-01 00:00:01.596660465,86.16,2.98,23,LY,29.03,21.55
158,saint-francois,0,1970-01-01 00:00:01.596660465,71.6,3.36,37,FR,46.42,3.91
159,katsuura,3,1970-01-01 00:00:01.596659705,78.01,7.47,92,JP,35.13,140.3
160,westport,0,1970-01-01 00:00:01.596659959,88.0,5.99,45,US,41.14,-73.36
161,vila franca do campo,40,1970-01-01 00:00:01.596660465,73.4,10.29,83,PT,37.72,-25.43
162,murwillumbah,0,1970-01-01 00:00:01.596660465,46.4,3.36,87,AU,-28.32,153.4
163,mahebourg,75,1970-01-01 00:00:01.596659926,68.0,12.75,68,MU,-20.41,57.7
164,marawi,96,1970-01-01 00:00:01.596659988,75.0,1.99,96,PH,8.0,124.29
165,hadejia,24,1970-01-01 00:00:01.596660466,79.54,13.8,74,NG,12.45,10.04
166,port alfred,100,1970-01-01 00:00:01.596659778,57.4,11.3,89,ZA,-33.59,26.89
167,iquitos,40,1970-01-01 00:00:01.596660466,91.4,6.93,49,PE,-3.75,-73.25
168,pisco,20,1970-01-01 00:00:01.596660466,64.0,11.41,82,PE,-13.7,-76.22
169,christchurch,15,1970-01-01 00:00:01.596660299,48.99,14.99,93,NZ,-43.53,172.63
170,mizdah,1,1970-01-01 00:00:01.596660466,73.49,13.15,77,LY,31.45,12.98
171,yar-sale,1,1970-01-01 00:00:01.596660023,57.51,9.48,62,RU,66.83,70.83
172,tripoli,0,1970-01-01 00:00:01.596660467,77.52,9.01,72,LY,32.88,13.19
173,tubmanburg,70,1970-01-01 00:00:01.596660467,69.8,3.02,85,LR,6.87,-10.82
174,sonoita,0,1970-01-01 00:00:01.596660365,105.01,5.01,11,MX,31.85,-112.83
175,norman wells,75,1970-01-01 00:00:01.596659779,66.2,6.93,77,CA,65.28,-126.83
176,uglekamensk,100,1970-01-01 00:00:01.596660467,67.78,1.97,92,RU,43.22,133.23
177,rio grande,0,1970-01-01 00:00:01.596659736,78.8,8.05,50,BR,-32.03,-52.1
178,shimoda,0,1970-01-01 00:00:01.596659785,73.0,1.01,91,JP,34.67,138.95
179,altay,5,1970-01-01 00:00:01.596659937,58.89,2.42,60,CN,47.87,88.12
180,sal rei,75,1970-01-01 00:00:01.596660467,80.6,11.41,78,CV,16.18,-22.92
181,madras,40,1970-01-01 00:00:01.596660308,84.2,6.93,62,IN,13.09,80.28
182,penarth,90,1970-01-01 00:00:01.596660468,63.0,11.41,100,GB,51.44,-3.18
183,puerto escondido,75,1970-01-01 00:00:01.596659921,86.0,6.93,74,MX,15.85,-97.07
184,kirillov,75,1970-01-01 00:00:01.596660468,64.4,3.49,100,RU,59.86,38.38
185,mehamn,90,1970-01-01 00:00:01.596659674,48.2,6.93,93,NO,71.04,27.85
186,bethel,20,1970-01-01 00:00:01.596659918,84.99,9.17,48,US,41.37,-73.41
187,havre-saint-pierre,90,1970-01-01 00:00:01.596660468,62.6,12.75,93,CA,50.23,-63.6
188,jijiga,90,1970-01-01 00:00:01.596660468,64.96,16.93,71,ET,9.35,42.8
189,taybad,0,1970-01-01 00:00:01.596660469,73.0,20.92,26,IR,34.74,60.78
190,isla aguada,90,1970-01-01 00:00:01.596660469,87.8,6.93,70,MX,18.78,-91.47
191,waterloo,20,1970-01-01 00:00:01.596660385,71.01,14.99,49,CA,43.47,-80.52
192,sorland,0,1970-01-01 00:00:01.596659956,57.2,2.24,71,NO,67.67,12.69
193,usakos,0,1970-01-01 00:00:01.596660469,44.71,0.65,77,NA,-22.0,15.6
194,hendek,0,1970-01-01 00:00:01.596660469,64.4,1.9,93,TR,40.8,30.75
195,beloha,3,1970-01-01 00:00:01.596660469,61.75,4.07,91,MG,-25.17,45.05
196,manzhouli,0,1970-01-01 00:00:01.596660469,56.41,2.57,92,CN,49.6,117.43
197,troitsko-pechorsk,95,1970-01-01 00:00:01.596660470,58.32,4.63,87,RU,62.71,56.2
198,coquimbo,99,1970-01-01 00:00:01.596659956,62.6,13.87,72,CL,-29.95,-71.34
199,kaitangata,100,1970-01-01 00:00:01.596659940,44.01,1.99,91,NZ,-46.28,169.85
200,tambopata,0,1970-01-01 00:00:01.596660470,88.97,2.62,35,PE,-12.73,-69.18
201,chandbali,87,1970-01-01 00:00:01.596660470,80.44,7.38,87,IN,20.78,86.77
202,acajutla,20,1970-01-01 00:00:01.596660201,87.8,3.36,55,SV,13.59,-89.83
203,saint-georges,20,1970-01-01 00:00:01.596659944,86.0,16.11,74,GD,12.06,-61.75
204,deputatskiy,5,1970-01-01 00:00:01.596660470,59.2,8.88,47,RU,69.3,139.9
205,chattanooga,75,1970-01-01 00:00:01.596660196,90.0,8.05,45,US,35.05,-85.31
206,chuy,0,1970-01-01 00:00:01.596659940,66.02,7.99,79,UY,-33.7,-53.46
207,flin flon,40,1970-01-01 00:00:01.596660471,80.6,14.99,32,CA,54.77,-101.86
208,touros,82,1970-01-01 00:00:01.596659933,78.8,13.87,69,BR,-5.2,-35.46
209,arys,27,1970-01-01 00:00:01.596660471,77.0,4.47,36,KZ,42.43,68.8
210,port pirie,90,1970-01-01 00:00:01.596660471,48.2,4.7,66,AU,-33.18,138.02
211,pevek,100,1970-01-01 00:00:01.596659720,34.7,6.44,97,RU,69.7,170.31
212,codrington,75,1970-01-01 00:00:01.596659992,46.74,1.77,80,AU,-38.27,141.97
213,qaqortoq,20,1970-01-01 00:00:01.596659940,55.4,9.17,62,GL,60.72,-46.03
214,bloemfontein,0,1970-01-01 00:00:01.596660472,57.2,11.41,26,ZA,-29.12,26.21
215,goure,66,1970-01-01 00:00:01.596660472,82.0,8.01,75,NE,13.98,10.27
216,ornskoldsvik,100,1970-01-01 00:00:01.596660283,57.2,1.12,93,SE,63.29,18.72
217,nemuro,71,1970-01-01 00:00:01.596659954,65.62,2.26,97,JP,43.32,145.57
218,tiksi,100,1970-01-01 00:00:01.596659778,59.31,10.6,67,RU,71.69,128.87
219,teya,3,1970-01-01 00:00:01.596660472,54.86,1.97,90,RU,60.38,92.63
220,fairbanks,1,1970-01-01 00:00:01.596659989,68.0,1.77,72,US,64.84,-147.72
221,quatre cocos,75,1970-01-01 00:00:01.596660472,68.0,12.75,68,MU,-20.21,57.76
222,kutoarjo,65,1970-01-01 00:00:01.596660472,72.23,4.72,89,ID,-7.72,109.91
223,belen,0,1970-01-01 00:00:01.596660473,82.4,13.87,69,TR,36.49,36.22
224,souillac,75,1970-01-01 00:00:01.596659920,68.0,12.75,68,MU,-20.52,57.52
225,ulladulla,0,1970-01-01 00:00:01.596660473,42.8,9.17,77,AU,-35.35,150.47
226,alofi,75,1970-01-01 00:00:01.596659929,77.0,6.93,94,NU,-19.06,-169.92
227,glinishchevo,67,1970-01-01 00:00:01.596660473,63.68,2.66,80,RU,53.3,34.07
228,leningradskiy,99,1970-01-01 00:00:01.596659713,37.33,13.78,83,RU,69.38,178.42
229,dunedin,100,1970-01-01 00:00:01.596659924,44.01,1.99,91,NZ,-45.87,170.5
230,san patricio,20,1970-01-01 00:00:01.596659933,91.4,11.41,70,MX,19.22,-104.7
231,rawson,58,1970-01-01 00:00:01.596660474,55.89,27.85,39,AR,-43.3,-65.1
232,ostrovnoy,100,1970-01-01 00:00:01.596659676,55.45,9.91,90,RU,68.05,39.51
233,copiapo,0,1970-01-01 00:00:01.596660328,60.8,12.75,67,CL,-27.37,-70.33
234,hay river,75,1970-01-01 00:00:01.596660342,66.2,10.29,72,CA,60.82,-115.8
235,corrales,75,1970-01-01 00:00:01.596660474,91.0,10.29,18,US,35.24,-106.61
236,mount isa,0,1970-01-01 00:00:01.596659927,57.2,5.82,62,AU,-20.73,139.5
237,tasiilaq,100,1970-01-01 00:00:01.596659928,44.6,3.36,81,GL,65.61,-37.64
238,beringovskiy,100,1970-01-01 00:00:01.596659964,48.38,14.05,67,RU,63.05,179.32
239,saldanha,0,1970-01-01 00:00:01.596659925,42.8,4.7,75,ZA,-33.01,17.94
240,bull savanna,2,1970-01-01 00:00:01.596660475,84.07,17.49,68,JM,17.89,-77.59
241,portland,20,1970-01-01 00:00:01.596659775,82.99,10.29,41,US,45.52,-122.68
242,goderich,33,1970-01-01 00:00:01.596659937,69.01,7.99,61,CA,43.75,-81.72
243,paray-le-monial,0,1970-01-01 00:00:01.596660475,71.6,3.36,37,FR,46.45,4.12
244,champua,97,1970-01-01 00:00:01.596660475,75.09,11.5,92,IN,22.08,85.67
245,usevya,6,1970-01-01 00:00:01.596660475,69.76,2.59,47,TZ,-7.1,31.23
246,goya,0,1970-01-01 00:00:01.596660475,79.59,6.42,44,AR,-29.14,-59.26
247,lewistown,1,1970-01-01 00:00:01.596660475,84.99,9.17,34,US,40.6,-77.57
248,dunnville,40,1970-01-01 00:00:01.596660475,75.99,16.11,43,CA,42.9,-79.62
249,rodos,0,1970-01-01 00:00:01.596660476,78.8,11.41,69,GR,36.44,28.22
250,champerico,100,1970-01-01 00:00:01.596660476,85.19,6.2,71,GT,14.3,-91.92
251,namatanai,94,1970-01-01 00:00:01.596659935,80.38,10.4,79,PG,-3.67,152.43
252,palmas,71,1970-01-01 00:00:01.596660192,87.8,11.41,33,BR,-10.21,-48.36
253,ossora,12,1970-01-01 00:00:01.596659970,59.16,11.27,61,RU,59.24,163.07
254,cairns,40,1970-01-01 00:00:01.596660200,68.0,5.82,82,AU,-16.92,145.77
255,sao domingos,2,1970-01-01 00:00:01.596660476,72.43,7.34,29,BR,-13.4,-46.32
256,onalaska,1,1970-01-01 00:00:01.596660476,80.6,11.41,32,US,43.88,-91.24
257,port-gentil,40,1970-01-01 00:00:01.596659951,77.0,12.1,83,GA,-0.72,8.78
258,maumere,31,1970-01-01 00:00:01.596660477,74.17,5.46,78,ID,-8.62,122.21
259,banjar,20,1970-01-01 00:00:01.596660477,75.2,4.7,100,ID,-8.19,114.97
260,faanui,22,1970-01-01 00:00:01.596659934,78.42,15.73,81,PF,-16.48,-151.75
261,yarmouth,1,1970-01-01 00:00:01.596660477,84.2,16.11,62,US,41.71,-70.23
262,elliot,57,1970-01-01 00:00:01.596660477,41.4,1.9,76,ZA,-31.33,27.85
263,rawah,0,1970-01-01 00:00:01.596660477,91.09,13.69,24,IQ,34.48,41.91
264,kamina,0,1970-01-01 00:00:01.596660478,66.99,2.73,33,CD,-8.74,24.99
265,uyemskiy,90,1970-01-01 00:00:01.596660478,59.0,8.95,93,RU,64.47,40.85
266,boyolangu,96,1970-01-01 00:00:01.596660478,72.66,5.95,89,ID,-8.12,111.89
267,ghanzi,0,1970-01-01 00:00:01.596660478,59.65,9.95,31,BW,-21.57,21.78
268,devils lake,1,1970-01-01 00:00:01.596660478,75.2,5.82,57,US,48.11,-98.87
269,antigonish,85,1970-01-01 00:00:01.596660478,79.0,5.99,78,CA,45.62,-62.0
270,qabaqcol,75,1970-01-01 00:00:01.596660479,75.2,11.41,50,AZ,41.72,46.26
271,melbu,0,1970-01-01 00:00:01.596660479,57.2,2.24,76,NO,68.5,14.83
272,mollendo,63,1970-01-01 00:00:01.596660479,60.01,5.59,75,PE,-17.02,-72.01
273,san quintin,0,1970-01-01 00:00:01.596659962,76.19,20.2,54,MX,30.48,-115.95
274,acapulco,75,1970-01-01 00:00:01.596660254,89.6,6.93,75,MX,16.86,-99.89
275,tuktoyaktuk,90,1970-01-01 00:00:01.596659918,48.2,5.82,81,CA,69.45,-133.04
276,gazli,7,1970-01-01 00:00:01.596660479,73.08,12.77,30,UZ,40.13,63.45
277,adrar,15,1970-01-01 00:00:01.596659797,99.93,11.79,22,MR,20.5,-10.07
278,san matias,0,1970-01-01 00:00:01.596660480,92.91,4.54,18,BO,-16.37,-58.4
279,bogale,100,1970-01-01 00:00:01.596660480,78.15,10.22,92,MM,16.28,95.4
280,namibe,38,1970-01-01 00:00:01.596659954,62.17,10.18,85,AO,-15.2,12.15
281,kibre mengist,86,1970-01-01 00:00:01.596660480,58.17,1.72,87,ET,5.88,38.98
282,ormara,0,1970-01-01 00:00:01.596659988,84.36,2.06,82,PK,25.21,64.64
283,vytegra,8,1970-01-01 00:00:01.596660481,58.53,6.58,94,RU,61.01,36.45
284,lazaro cardenas,32,1970-01-01 00:00:01.596659944,87.57,8.1,66,MX,17.96,-102.2
285,yumen,15,1970-01-01 00:00:01.596659970,68.79,4.21,54,CN,40.28,97.2
286,itarema,8,1970-01-01 00:00:01.596660481,78.67,14.09,69,BR,-2.92,-39.92
287,alexandria,0,1970-01-01 00:00:01.596660358,80.6,9.17,74,EG,31.22,29.96
288,pemangkat,100,1970-01-01 00:00:01.596659975,76.93,4.18,86,ID,1.17,108.97
289,daund,100,1970-01-01 00:00:01.596660481,71.92,8.28,87,IN,18.47,74.6
290,fulton,20,1970-01-01 00:00:01.596660481,89.01,8.05,58,US,33.77,-84.45
291,lisakovsk,0,1970-01-01 00:00:01.596660482,69.06,12.06,64,KZ,52.54,62.49
292,neuquen,20,1970-01-01 00:00:01.596660482,62.6,20.8,20,AR,-38.95,-68.06
293,viedma,0,1970-01-01 00:00:01.596659955,62.01,8.01,41,AR,-40.81,-63.0
294,rock sound,5,1970-01-01 00:00:01.596660482,83.62,8.66,78,BS,24.9,-76.2
295,tarakan,44,1970-01-01 00:00:01.596660482,78.91,8.84,84,ID,3.3,117.63
296,ishigaki,32,1970-01-01 00:00:01.596660482,83.41,12.17,84,JP,24.34,124.16
297,georgetown,20,1970-01-01 00:00:01.596659924,84.2,4.7,94,MY,5.41,100.34
298,ampere,0,1970-01-01 00:00:01.596660482,65.5,2.59,66,BR,-25.91,-53.47
299,praia,40,1970-01-01 00:00:01.596659970,80.6,9.17,78,CV,14.92,-23.51
300,nikolayevsk-na-amure,100,1970-01-01 00:00:01.596660483,51.91,3.31,88,RU,53.14,140.73
301,pangody,0,1970-01-01 00:00:01.596660483,53.83,1.41,73,RU,65.85,74.49
302,geraldton,0,1970-01-01 00:00:01.596659930,50.0,9.17,87,AU,-28.77,114.6
303,toamasina,79,1970-01-01 00:00:01.596660483,68.85,3.42,75,MG,-18.17,49.38
304,kungurtug,85,1970-01-01 00:00:01.596659933,52.39,3.2,88,RU,50.6,97.52
305,storforshei,20,1970-01-01 00:00:01.596660483,55.4,2.24,71,NO,66.4,14.52
306,biak,73,1970-01-01 00:00:01.596660483,75.97,5.59,86,ID,-0.91,122.88
307,nanga eboko,48,1970-01-01 00:00:01.596660484,68.27,5.12,95,CM,4.68,12.37
308,zhangjiakou,31,1970-01-01 00:00:01.596660484,66.15,1.54,74,CN,40.81,114.88
309,isangel,1,1970-01-01 00:00:01.596659955,70.9,4.5,63,VU,-19.55,169.27
310,broken hill,90,1970-01-01 00:00:01.596659824,44.6,12.75,39,AU,-31.95,141.43
311,luderitz,3,1970-01-01 00:00:01.596659941,55.4,19.46,54,NA,-26.65,15.16
312,karatoulas,20,1970-01-01 00:00:01.596660484,80.6,6.93,88,GR,37.73,21.53
313,tazmalt,0,1970-01-01 00:00:01.596660484,71.6,4.7,64,DZ,36.39,4.4
314,santa vitoria do palmar,0,1970-01-01 00:00:01.596660484,66.22,7.65,76,BR,-33.52,-53.37
315,bairiki,20,1970-01-01 00:00:01.596660484,84.2,14.99,74,KI,1.33,172.98
316,chapais,90,1970-01-01 00:00:01.596660485,59.0,11.41,93,CA,49.78,-74.85
317,handan,100,1970-01-01 00:00:01.596660485,72.64,4.72,94,CN,36.6,114.47
318,aswan,11,1970-01-01 00:00:01.596659943,97.14,11.61,18,EG,24.09,32.91
319,kysyl-syr,0,1970-01-01 00:00:01.596660485,60.03,1.3,65,RU,63.9,122.76
320,sola,0,1970-01-01 00:00:01.596660485,76.15,20.31,80,VU,-13.88,167.55
321,bambous virieux,75,1970-01-01 00:00:01.596659972,68.0,12.75,68,MU,-20.34,57.76
322,bati,100,1970-01-01 00:00:01.596660485,68.13,4.97,77,ET,11.18,40.02
323,ilulissat,100,1970-01-01 00:00:01.596659934,40.08,4.81,87,GL,69.22,-51.1
324,maniitsoq,13,1970-01-01 00:00:01.596659702,48.51,9.98,75,GL,65.42,-52.9
325,grindavik,75,1970-01-01 00:00:01.596659945,48.2,16.11,93,IS,63.84,-22.43
326,bandarbeyla,100,1970-01-01 00:00:01.596660486,78.78,32.86,73,SO,9.49,50.81
327,davila,100,1970-01-01 00:00:01.596660486,81.82,4.09,75,PH,18.47,120.58
328,majdanpek,100,1970-01-01 00:00:01.596660486,68.0,2.73,82,RS,44.43,21.95
329,villa bruzual,82,1970-01-01 00:00:01.596660486,81.72,4.25,83,VE,9.33,-69.12
330,the valley,40,1970-01-01 00:00:01.596659949,82.4,12.75,69,AI,18.22,-63.06
331,marrakesh,40,1970-01-01 00:00:01.596660486,87.8,9.17,43,MA,31.63,-8.01
332,ternate,100,1970-01-01 00:00:01.596660486,80.01,4.61,80,ID,0.8,127.4
333,aguilas,0,1970-01-01 00:00:01.596660486,80.01,1.01,69,ES,37.41,-1.58
334,hongjiang,0,1970-01-01 00:00:01.596659923,76.26,3.15,88,CN,27.11,110.0
335,shurob,0,1970-01-01 00:00:01.596660487,73.94,3.83,32,TJ,40.05,70.55
336,tete,0,1970-01-01 00:00:01.596660487,80.6,3.36,34,MZ,-16.16,33.59
337,qurayyat,0,1970-01-01 00:00:01.596660487,80.6,23.04,42,SA,31.33,37.34
338,gold coast,0,1970-01-01 00:00:01.596659790,46.4,5.82,87,AU,-28.0,153.43
339,mecca,79,1970-01-01 00:00:01.596659988,87.8,9.82,54,SA,21.43,39.83
340,khorixas,0,1970-01-01 00:00:01.596660488,46.63,2.75,79,NA,-20.37,14.97
341,cidreira,0,1970-01-01 00:00:01.596659865,60.96,9.01,75,BR,-30.18,-50.21
342,cisaat,85,1970-01-01 00:00:01.596660488,70.02,1.77,97,ID,-6.29,105.97
343,pangnirtung,90,1970-01-01 00:00:01.596659957,50.0,4.7,93,CA,66.15,-65.71
344,kosai,17,1970-01-01 00:00:01.596660488,78.01,1.01,100,JP,34.71,137.53
345,fortuna,100,1970-01-01 00:00:01.596659969,62.01,3.0,93,US,40.6,-124.16
346,veraval,100,1970-01-01 00:00:01.596660488,82.81,17.38,87,IN,20.9,70.37
347,tazovskiy,0,1970-01-01 00:00:01.596660488,52.23,4.5,78,RU,67.47,78.7
348,kuliyapitiya,40,1970-01-01 00:00:01.596660488,80.6,6.93,100,LK,7.47,80.04
349,baykit,92,1970-01-01 00:00:01.596660489,60.46,3.91,74,RU,61.67,96.37
350,buraydah,0,1970-01-01 00:00:01.596660489,89.6,10.29,25,SA,26.33,43.98
351,troitskoye,0,1970-01-01 00:00:01.596660489,58.39,7.72,70,RU,52.98,84.68
352,gamovo,24,1970-01-01 00:00:01.596660489,62.6,4.47,100,RU,57.87,56.11
353,port hardy,90,1970-01-01 00:00:01.596659932,59.0,5.26,77,CA,50.7,-127.42
354,leon,75,1970-01-01 00:00:01.596660247,78.8,4.72,54,MX,21.12,-101.67
355,sistranda,75,1970-01-01 00:00:01.596660489,57.99,5.82,100,NO,63.73,8.83
356,nouakchott,75,1970-01-01 00:00:01.596660490,82.4,11.41,74,MR,18.09,-15.98
357,ancud,20,1970-01-01 00:00:01.596659957,48.2,4.7,66,CL,-41.87,-73.82
358,margate,25,1970-01-01 00:00:01.596659994,70.0,1.99,61,GB,51.38,1.39
359,san policarpo,100,1970-01-01 00:00:01.596660490,82.42,10.07,81,PH,12.18,125.51
360,sucua,20,1970-01-01 00:00:01.596660490,77.0,4.7,47,EC,-2.47,-78.17
361,puerto suarez,0,1970-01-01 00:00:01.596660490,89.6,8.05,22,BO,-18.95,-57.8
362,kattivakkam,40,1970-01-01 00:00:01.596660490,84.2,6.93,62,IN,13.22,80.32
363,kavaratti,94,1970-01-01 00:00:01.596659944,82.63,31.45,80,IN,10.57,72.64
364,bathsheba,40,1970-01-01 00:00:01.596659918,87.8,16.11,62,BB,13.22,-59.52
365,takoradi,52,1970-01-01 00:00:01.596660491,73.71,11.61,80,GH,4.88,-1.76
366,roma,20,1970-01-01 00:00:01.596660365,75.2,14.99,47,US,43.21,-75.46
367,tilichiki,97,1970-01-01 00:00:01.596660491,54.54,13.42,62,RU,60.47,166.1
368,kiunga,91,1970-01-01 00:00:01.596660491,72.88,2.08,98,PG,-6.12,141.29
369,coihaique,75,1970-01-01 00:00:01.596659947,39.2,5.82,80,CL,-45.58,-72.07
370,marzuq,100,1970-01-01 00:00:01.596660491,83.64,4.68,49,YE,14.4,46.47
371,juneau,90,1970-01-01 00:00:01.596660492,60.8,5.23,72,US,58.3,-134.42
372,naifaru,80,1970-01-01 00:00:01.596660492,82.44,20.27,80,MV,5.44,73.37
373,port moresby,75,1970-01-01 00:00:01.596659981,73.4,3.36,100,PG,-9.44,147.18
374,huambo,0,1970-01-01 00:00:01.596660492,55.76,5.35,34,AO,-12.78,15.74
375,bayir,0,1970-01-01 00:00:01.596660492,75.2,2.24,78,TR,37.27,28.22
376,sulangan,100,1970-01-01 00:00:01.596660492,80.19,7.76,83,PH,11.14,123.72
377,nizhnevartovsk,74,1970-01-01 00:00:01.596660492,62.6,4.47,100,RU,60.93,76.55
378,esperance,90,1970-01-01 00:00:01.596660492,51.8,5.82,100,AU,-33.87,121.9
379,comodoro rivadavia,82,1970-01-01 00:00:01.596659792,55.4,27.51,50,AR,-45.87,-67.5
380,olyka,77,1970-01-01 00:00:01.596660493,64.99,7.63,98,UA,50.72,25.81
381,paamiut,100,1970-01-01 00:00:01.596659963,44.38,16.78,83,GL,61.99,-49.67
382,vao,0,1970-01-01 00:00:01.596660493,69.48,5.79,66,NC,-22.67,167.48
383,lokoja,100,1970-01-01 00:00:01.596660493,73.58,6.64,91,NG,7.8,6.74
384,stykkisholmur,93,1970-01-01 00:00:01.596660493,51.24,10.94,83,IS,65.08,-22.73
385,alyangula,90,1970-01-01 00:00:01.596660493,64.4,7.43,100,AU,-13.85,136.42
386,smithers,90,1970-01-01 00:00:01.596660337,57.2,8.05,93,CA,54.78,-127.17
387,port hedland,68,1970-01-01 00:00:01.596659703,55.4,10.29,50,AU,-20.32,118.57
388,manzanillo,43,1970-01-01 00:00:01.596660494,90.19,4.56,58,CU,20.34,-77.12
389,setermoen,20,1970-01-01 00:00:01.596660494,53.6,5.82,93,NO,68.86,18.35
390,gboko,90,1970-01-01 00:00:01.596660494,77.43,8.68,72,NG,7.32,9.0
391,mogocha,100,1970-01-01 00:00:01.596660494,54.66,1.72,95,RU,53.73,119.77
392,saint george,1,1970-01-01 00:00:01.596659764,100.0,5.82,8,US,37.1,-113.58
393,klaksvik,52,1970-01-01 00:00:01.596659931,51.8,10.29,100,FO,62.23,-6.59
394,zyryanka,68,1970-01-01 00:00:01.596659941,61.36,7.56,45,RU,65.75,150.85
395,bani walid,0,1970-01-01 00:00:01.596660494,73.67,11.83,83,LY,31.76,13.99
396,kirakira,84,1970-01-01 00:00:01.596660495,80.49,11.48,83,SB,-10.45,161.92
397,los llanos de aridane,75,1970-01-01 00:00:01.596659839,73.4,13.87,78,ES,28.66,-17.92
398,panzhihua,1,1970-01-01 00:00:01.596660495,72.37,0.25,77,CN,26.59,101.71
399,giyani,2,1970-01-01 00:00:01.596660495,60.04,4.65,72,ZA,-23.3,30.72
400,tautira,75,1970-01-01 00:00:01.596659978,82.4,3.36,69,PF,-17.73,-149.15
401,sechura,32,1970-01-01 00:00:01.596659945,71.58,18.68,55,PE,-5.56,-80.82
402,daru,70,1970-01-01 00:00:01.596660495,76.53,13.18,89,PG,-9.08,143.21
403,salalah,40,1970-01-01 00:00:01.596659925,80.6,10.29,83,OM,17.02,54.09
404,gondanglegi,99,1970-01-01 00:00:01.596660495,73.17,11.81,84,ID,-7.75,112.01
405,nagua,20,1970-01-01 00:00:01.596660496,89.6,9.17,70,DO,19.38,-69.85
406,byron bay,0,1970-01-01 00:00:01.596660496,48.99,2.24,93,AU,-28.65,153.62
407,hoquiam,40,1970-01-01 00:00:01.596660496,66.99,10.29,68,US,46.98,-123.89
408,tessalit,15,1970-01-01 00:00:01.596660496,91.29,14.85,43,ML,20.2,1.01
409,haines junction,38,1970-01-01 00:00:01.596659965,63.57,2.89,45,CA,60.75,-137.51
410,topi,0,1970-01-01 00:00:01.596660496,84.99,8.05,83,PK,34.07,72.62
411,cozumel,40,1970-01-01 00:00:01.596660496,90.0,6.93,70,MX,20.51,-86.95
412,inirida,4,1970-01-01 00:00:01.596660496,85.53,1.99,61,CO,3.87,-67.92
413,muros,0,1970-01-01 00:00:01.596659830,71.01,3.0,62,ES,42.78,-9.06
414,constanta,5,1970-01-01 00:00:01.596660275,73.4,4.7,73,RO,44.18,28.65
415,umm kaddadah,100,1970-01-01 00:00:01.596660497,76.19,7.34,73,SD,13.6,26.69
416,port hawkesbury,40,1970-01-01 00:00:01.596660497,75.0,5.82,83,CA,45.62,-61.35
417,ngaoundere,100,1970-01-01 00:00:01.596660497,63.64,4.18,97,CM,7.32,13.58
418,swan hill,41,1970-01-01 00:00:01.596660497,33.75,4.5,92,AU,-35.34,143.55
419,gazanjyk,26,1970-01-01 00:00:01.596660497,77.05,1.77,36,TM,39.24,55.52
420,serebryansk,5,1970-01-01 00:00:01.596660497,55.4,4.47,87,KZ,49.69,83.29
421,san jeronimo,0,1970-01-01 00:00:01.596660497,64.71,5.14,26,PE,-11.95,-75.28
422,rocha,3,1970-01-01 00:00:01.596660497,67.06,8.63,79,UY,-34.48,-54.33
423,turukhansk,100,1970-01-01 00:00:01.596659944,58.8,8.41,71,RU,65.82,87.98
424,orsha,100,1970-01-01 00:00:01.596660498,63.36,6.71,95,BY,54.52,30.41
425,sawtell,0,1970-01-01 00:00:01.596660498,43.0,1.12,100,AU,-30.38,153.1
426,bac lieu,100,1970-01-01 00:00:01.596660498,76.46,12.73,85,VN,9.29,105.72
427,zhezkazgan,17,1970-01-01 00:00:01.596660498,78.96,11.41,34,KZ,47.8,67.71
428,broome,75,1970-01-01 00:00:01.596659945,77.0,8.05,49,US,42.25,-75.83
429,te anau,100,1970-01-01 00:00:01.596659962,44.71,0.89,90,NZ,-45.42,167.72
430,lixourion,40,1970-01-01 00:00:01.596660498,80.6,5.82,100,GR,38.2,20.43
431,cayenne,49,1970-01-01 00:00:01.596660499,78.8,2.24,88,GF,4.93,-52.33
432,puerto leguizamo,79,1970-01-01 00:00:01.596659947,80.83,2.48,67,CO,-0.19,-74.78
433,ponta delgada,40,1970-01-01 00:00:01.596659983,73.4,10.29,83,PT,37.73,-25.67
434,la tuque,5,1970-01-01 00:00:01.596660499,68.23,10.27,78,CA,47.43,-72.78
435,yankton,40,1970-01-01 00:00:01.596660499,86.0,9.17,57,US,42.87,-97.4
436,porbandar,100,1970-01-01 00:00:01.596660499,84.16,18.45,86,IN,21.64,69.61
437,olawa,77,1970-01-01 00:00:01.596660499,62.01,4.7,72,PL,50.95,17.29
438,pingliang,100,1970-01-01 00:00:01.596660499,73.04,1.7,79,CN,35.54,106.69
439,sokoni,0,1970-01-01 00:00:01.596660500,76.46,13.71,78,TZ,-6.43,39.55
440,tiarei,75,1970-01-01 00:00:01.596659951,82.4,3.36,69,PF,-17.53,-149.33
441,diebougou,90,1970-01-01 00:00:01.596660500,75.49,3.02,77,BF,10.97,-3.25
442,richards bay,36,1970-01-01 00:00:01.596659981,62.47,7.27,87,ZA,-28.78,32.04
443,pringsewu,81,1970-01-01 00:00:01.596660500,72.7,0.31,92,ID,-5.36,104.97
444,assare,1,1970-01-01 00:00:01.596660500,78.22,7.43,44,BR,-6.87,-39.88
445,nador,0,1970-01-01 00:00:01.596660500,82.4,6.93,61,MA,35.17,-2.93
446,ulundi,87,1970-01-01 00:00:01.596660500,58.5,5.35,85,ZA,-28.34,31.42
447,besenyszog,100,1970-01-01 00:00:01.596660501,68.0,9.17,88,HU,47.3,20.27
448,seymchan,0,1970-01-01 00:00:01.596660501,59.2,3.22,48,RU,62.88,152.43
449,taoudenni,9,1970-01-01 00:00:01.596659962,108.34,10.6,11,ML,22.68,-3.98
450,lebu,46,1970-01-01 00:00:01.596659919,50.81,11.34,74,CL,-37.62,-73.65
451,cascais,20,1970-01-01 00:00:01.596660501,73.4,23.04,46,PT,38.7,-9.42
452,noumea,75,1970-01-01 00:00:01.596660434,66.99,2.24,87,NC,-22.28,166.46
453,kilosa,1,1970-01-01 00:00:01.596660501,69.42,0.69,67,TZ,-6.83,36.98
454,camacha,75,1970-01-01 00:00:01.596659980,71.6,12.75,83,PT,33.08,-16.33
455,langfang,91,1970-01-01 00:00:01.596660501,78.01,3.53,85,CN,39.51,116.69
456,amahai,79,1970-01-01 00:00:01.596659996,78.01,2.55,96,ID,-3.33,128.92
457,foldes,100,1970-01-01 00:00:01.596660502,69.8,14.99,77,HU,47.3,21.37
458,thinadhoo,100,1970-01-01 00:00:01.596659956,82.47,16.28,77,MV,0.53,72.93
459,aykhal,0,1970-01-01 00:00:01.596659928,62.6,6.71,42,RU,66.0,111.5
460,san ramon,90,1970-01-01 00:00:01.596660356,70.0,14.99,64,US,37.78,-121.98
461,lavrentiya,100,1970-01-01 00:00:01.596659966,45.59,8.16,84,RU,65.58,-171.0
462,saquena,99,1970-01-01 00:00:01.596660502,84.18,1.43,65,PE,-4.67,-73.52
463,san francisco,90,1970-01-01 00:00:01.596660418,66.99,21.92,72,US,37.77,-122.42
464,severo-yeniseyskiy,1,1970-01-01 00:00:01.596660502,51.53,1.92,98,RU,60.37,93.04
465,saint-esteve,0,1970-01-01 00:00:01.596660502,75.0,4.7,35,FR,42.71,2.84
466,omsukchan,47,1970-01-01 00:00:01.596660503,53.55,3.15,56,RU,62.53,155.8
467,kyzyl-suu,13,1970-01-01 00:00:01.596660503,61.38,4.52,49,KG,42.34,78.0
468,carballo,40,1970-01-01 00:00:01.596660503,68.0,6.93,88,ES,43.21,-8.69
469,sujiatun,20,1970-01-01 00:00:01.596660503,71.6,2.24,100,CN,41.66,123.34
470,podor,51,1970-01-01 00:00:01.596660503,90.05,16.35,53,MR,16.65,-14.96
471,kudahuvadhoo,100,1970-01-01 00:00:01.596659954,82.24,15.12,78,MV,2.67,72.89
472,prince rupert,90,1970-01-01 00:00:01.596659815,55.4,5.82,93,CA,54.32,-130.32
473,kassala,79,1970-01-01 00:00:01.596660503,73.74,11.97,82,SD,15.45,36.4
474,warrington,75,1970-01-01 00:00:01.596660504,68.0,6.93,77,GB,53.39,-2.58
475,nawabganj,72,1970-01-01 00:00:01.596660504,80.89,15.28,87,BD,24.59,88.27
476,vila do maio,40,1970-01-01 00:00:01.596659965,80.6,9.17,78,CV,15.13,-23.22
477,montepuez,0,1970-01-01 00:00:01.596660504,64.87,5.91,89,MZ,-13.13,39.0
478,brae,97,1970-01-01 00:00:01.596659973,55.4,6.93,100,GB,60.4,-1.35
479,rangpur,93,1970-01-01 00:00:01.596660291,82.81,15.93,80,BD,25.75,89.25
480,beyneu,45,1970-01-01 00:00:01.596659976,74.16,7.36,46,KZ,45.32,55.2
481,kazerun,0,1970-01-01 00:00:01.596660505,85.48,0.58,25,IR,29.62,51.65
482,fort nelson,75,1970-01-01 00:00:01.596660505,71.6,4.7,43,CA,58.81,-122.7
483,lufilufi,12,1970-01-01 00:00:01.596660505,81.91,8.39,76,WS,-13.87,-171.6
484,port hueneme,90,1970-01-01 00:00:01.596660505,75.99,10.29,72,US,34.15,-119.2
485,taltal,22,1970-01-01 00:00:01.596660484,63.41,4.43,62,CL,-25.4,-70.48
486,rafaela,0,1970-01-01 00:00:01.596660491,89.01,1.01,29,AR,-31.25,-61.49
487,boca do acre,0,1970-01-01 00:00:01.596660505,94.89,2.21,24,BR,-8.75,-67.4
488,madimba,0,1970-01-01 00:00:01.596660506,70.92,8.28,89,TZ,-10.4,40.33
489,buribay,1,1970-01-01 00:00:01.596660506,68.72,14.18,70,RU,51.96,58.16
490,zhaodong,6,1970-01-01 00:00:01.596660506,68.0,4.47,100,CN,46.08,125.98
491,sisimiut,32,1970-01-01 00:00:01.596659989,48.65,4.25,68,GL,66.94,-53.67
492,maple creek,0,1970-01-01 00:00:01.596660506,85.41,5.19,20,CA,49.92,-109.48
493,tabuk,100,1970-01-01 00:00:01.596660506,74.39,2.39,85,PH,17.42,121.44
494,khasan,100,1970-01-01 00:00:01.596660506,68.22,5.14,96,RU,42.43,130.64
495,kuala lipis,100,1970-01-01 00:00:01.596660506,74.53,1.03,96,MY,4.18,102.05
496,nanortalik,25,1970-01-01 00:00:01.596659996,44.35,5.1,84,GL,60.14,-45.24
497,cururupu,16,1970-01-01 00:00:01.596660507,78.13,3.22,74,BR,-1.83,-44.87
498,clyde river,75,1970-01-01 00:00:01.596659953,42.8,13.87,75,CA,70.47,-68.59
499,salamiyah,0,1970-01-01 00:00:01.596660507,72.03,14.58,76,SY,35.01,37.05
500,pacific grove,90,1970-01-01 00:00:01.596659806,69.8,8.05,60,US,36.62,-121.92
501,aripuana,0,1970-01-01 00:00:01.596660507,94.53,2.15,28,BR,-9.17,-60.63
502,sorong,100,1970-01-01 00:00:01.596660507,78.76,5.48,85,ID,-0.88,131.25
503,dudinka,0,1970-01-01 00:00:01.596659934,55.4,2.24,87,RU,69.41,86.18
504,roura,71,1970-01-01 00:00:01.596660507,78.8,2.24,88,GF,4.73,-52.33
505,gravdal,0,1970-01-01 00:00:01.596660507,57.2,2.24,71,NO,68.12,13.5
506,ust-kuyga,100,1970-01-01 00:00:01.596660508,61.3,8.41,57,RU,70.02,135.6
507,mugur-aksy,22,1970-01-01 00:00:01.596660508,45.99,3.98,78,RU,50.35,90.5
508,tumsar,100,1970-01-01 00:00:01.596660508,77.83,6.49,88,IN,21.38,79.73
509,eskisehir,0,1970-01-01 00:00:01.596660508,71.6,10.29,46,TR,39.78,30.52
510,skibbereen,40,1970-01-01 00:00:01.596660508,64.4,3.36,72,IE,51.55,-9.27
511,manggar,98,1970-01-01 00:00:01.596660508,79.7,9.86,84,ID,-2.88,108.27
512,yeppoon,90,1970-01-01 00:00:01.596660508,57.2,2.24,93,AU,-23.13,150.73
513,pierre,1,1970-01-01 00:00:01.596660509,82.99,9.17,48,US,44.37,-100.35
514,srednekolymsk,42,1970-01-01 00:00:01.596660509,59.79,9.78,48,RU,67.45,153.68
515,lososina,100,1970-01-01 00:00:01.596660509,54.73,2.37,93,RU,49.0,140.31
516,sao gabriel da cachoeira,47,1970-01-01 00:00:01.596660509,81.37,1.45,85,BR,-0.13,-67.09
517,novo aripuana,31,1970-01-01 00:00:01.596660509,94.06,2.66,35,BR,-5.12,-60.38
518,garissa,1,1970-01-01 00:00:01.596660509,74.84,18.92,77,KE,-0.45,39.64
519,cove,23,1970-01-01 00:00:01.596660510,72.39,7.99,82,BJ,7.22,2.34
520,palmer,40,1970-01-01 00:00:01.596659969,87.8,13.87,35,US,42.16,-72.33
521,thunder bay,75,1970-01-01 00:00:01.596660292,75.2,6.93,50,CA,48.4,-89.32
522,wyndham,20,1970-01-01 00:00:01.596660510,91.0,1.66,52,US,37.7,-77.61
523,zhanaozen,66,1970-01-01 00:00:01.596660510,66.24,17.74,71,KZ,43.3,52.8
524,alice springs,90,1970-01-01 00:00:01.596660511,48.2,4.7,100,AU,-23.7,133.88
525,mandalgovi,0,1970-01-01 00:00:01.596659958,68.13,10.6,39,MN,45.76,106.27
526,batouri,100,1970-01-01 00:00:01.596660511,68.76,3.65,92,CM,4.43,14.37
527,metsavan,0,1970-01-01 00:00:01.596660511,57.2,2.24,67,AM,41.2,44.23
528,rameswaram,93,1970-01-01 00:00:01.596660511,83.91,27.6,76,IN,9.28,79.3
529,nyrob,0,1970-01-01 00:00:01.596660511,54.75,2.68,71,RU,60.73,56.72
530,dashitou,100,1970-01-01 00:00:01.596660511,63.41,1.7,91,CN,43.31,128.51
531,vanimo,99,1970-01-01 00:00:01.596660512,78.31,3.2,80,PG,-2.67,141.3
532,rapar,100,1970-01-01 00:00:01.596660512,86.65,13.82,74,IN,23.57,70.63
533,saint anthony,75,1970-01-01 00:00:01.596660001,78.01,6.93,50,US,45.02,-93.22
534,chicla,0,1970-01-01 00:00:01.596660512,59.0,9.06,28,PE,-11.71,-76.27
535,bambanglipuro,83,1970-01-01 00:00:01.596660512,73.04,6.76,90,ID,-7.95,110.28
536,rodrigues alves,75,1970-01-01 00:00:01.596660512,93.2,5.82,41,BR,-7.74,-72.65
537,sampit,100,1970-01-01 00:00:01.596659978,74.32,1.7,97,ID,-2.53,112.95
538,tual,93,1970-01-01 00:00:01.596659737,77.92,12.1,86,ID,-5.67,132.75
539,kidal,17,1970-01-01 00:00:01.596660513,88.95,4.03,47,ML,18.44,1.41
540,teeli,55,1970-01-01 00:00:01.596660513,53.49,1.39,76,RU,51.03,90.23
541,saint-pierre,58,1970-01-01 00:00:01.596660513,60.8,8.05,72,RE,-21.34,55.48
542,beloomut,35,1970-01-01 00:00:01.596660513,57.99,2.17,69,RU,54.94,39.34
543,gamba,53,1970-01-01 00:00:01.596660513,72.34,4.74,84,GA,-2.65,10.0
544,beaverlodge,20,1970-01-01 00:00:01.596660513,78.8,10.29,39,CA,55.22,-119.44
545,balabac,100,1970-01-01 00:00:01.596660513,80.13,10.92,85,PH,7.99,117.06
546,robertsport,94,1970-01-01 00:00:01.596660513,75.87,8.9,70,LR,6.75,-11.37
